Time[s],Roll[deg],Pitch[deg],Yaw[deg],Easting[m],Northing[m],Height[m]
216089.127262,-1.216987240439,-13.651066817636,15.513150101748,682256.3644,5763609.5492,74.8281
216089.132262,-1.223298396878,-13.647541703563,15.505255462443,682256.3668,5763609.5583,74.8272
216089.137262,-1.231997919668,-13.645045593265,15.500528038892,682256.3694,5763609.5674,74.8262
216089.142262,-1.236772722729,-13.641128684314,15.492679683457,682256.3719,5763609.5766,74.8253
216089.147262,-1.244950281092,-13.633854369636,15.482905022359,682256.3744,5763609.5858,74.8243
216089.152262,-1.250421991190,-13.624864850529,15.473863026135,682256.3769,5763609.5951,74.8234
216089.157262,-1.256397044216,-13.617847099063,15.470088272903,682256.3795,5763609.6044,74.8225
216089.162262,-1.259781231961,-13.611228455685,15.465955558993,682256.3821,5763609.6138,74.8215
216089.167262,-1.265766632036,-13.601741765076,15.458903727689,682256.3846,5763609.6232,74.8206
216089.172262,-1.268158996129,-13.588679476318,15.450960353711,682256.3872,5763609.6327,74.8197
216089.177262,-1.268610879427,-13.576775148788,15.447280336290,682256.3898,5763609.6422,74.8188
216089.182262,-1.267063641673,-13.566323558003,15.445625542855,682256.3924,5763609.6517,74.8178
216089.187262,-1.267523000893,-13.554428336714,15.442387687315,682256.3950,5763609.6613,74.8169
216089.192262,-1.266350399815,-13.539237151138,15.436806248155,682256.3977,5763609.6710,74.8160
216089.197262,-1.263239898657,-13.525580127490,15.432627800857,682256.4003,5763609.6807,74.8151
216089.202262,-1.256982444951,-13.514432951742,15.429445101273,682256.4029,5763609.6904,74.8142
216089.207262,-1.256191177717,-13.503750029432,15.424031525139,682256.4056,5763609.7002,74.8133
216089.212262,-1.257136956125,-13.491784305348,15.415104874486,682256.4083,5763609.7100,74.8124
216089.217262,-1.259111502817,-13.482175535926,15.407709996196,682256.4109,5763609.7199,74.8115
216089.222262,-1.255504070990,-13.476771070874,15.402147324254,682256.4136,5763609.7298,74.8106
216089.227262,-1.256108533310,-13.472876668825,15.395372378633,682256.4164,5763609.7398,74.8097
216089.232262,-1.260961662627,-13.467065695276,15.385621675001,682256.4191,5763609.7497,74.8088
216089.237262,-1.268153987742,-13.463580331613,15.377139915803,682256.4218,5763609.7598,74.8079
216089.242262,-1.270883080315,-13.464993907612,15.372842480759,682256.4246,5763609.7698,74.8070
216089.247262,-1.275899605970,-13.468173695086,15.369217498519,682256.4274,5763609.7799,74.8061
216089.252262,-1.285928565645,-13.468776430145,15.363599376623,682256.4302,5763609.7901,74.8052
216089.257262,-1.297755809711,-13.469955621418,15.358558908713,682256.4330,5763609.8003,74.8043
216089.262262,-1.306199624908,-13.475097691544,15.358626361157,682256.4358,5763609.8105,74.8034
216089.267262,-1.312539655204,-13.481839834156,15.359109804545,682256.4387,5763609.8207,74.8024
216089.272262,-1.322792775317,-13.484401286151,15.356712882643,682256.4415,5763609.8310,74.8015
216089.277262,-1.332510240844,-13.485262884929,15.352392281177,682256.4444,5763609.8414,74.8006
216089.282262,-1.338033905714,-13.488481934601,15.351972784507,682256.4473,5763609.8518,74.7997
216089.287262,-1.338960586022,-13.492624725173,15.351189573547,682256.4501,5763609.8623,74.7988
216089.292262,-1.340256666893,-13.491293193042,15.346607040948,682256.4530,5763609.8727,74.7979
216089.297262,-1.343738731439,-13.486492760977,15.339365707369,682256.4559,5763609.8833,74.7970
216089.302262,-1.339925269306,-13.483505028884,15.334395713403,682256.4588,5763609.8939,74.7961
216089.307262,-1.335745991465,-13.481225986636,15.331619334840,682256.4617,5763609.9045,74.7952
216089.312262,-1.328990846624,-13.475371592945,15.324484777658,682256.4646,5763609.9152,74.7943
216089.317262,-1.330938867795,-13.466645265992,15.315538316755,682256.4675,5763609.9259,74.7934
216089.322262,-1.329564229099,-13.460695084175,15.308126295973,682256.4704,5763609.9367,74.7925
216089.327262,-1.329545666170,-13.455545061863,15.303939447158,682256.4734,5763609.9475,74.7917
216089.332262,-1.331171147009,-13.447938696908,15.298294935980,682256.4764,5763609.9584,74.7908
216089.337262,-1.337953497205,-13.438104418208,15.290667945727,682256.4793,5763609.9693,74.7899
216089.342262,-1.346616143366,-13.430453504775,15.285896723362,682256.4824,5763609.9802,74.7890
216089.347262,-1.353608831376,-13.424526524189,15.283460234779,682256.4854,5763609.9912,74.7882
216089.352262,-1.363036362212,-13.416593152298,15.281897533927,682256.4884,5763610.0022,74.7873
216089.357262,-1.376939435910,-13.407129358106,15.278435514190,682256.4915,5763610.0133,74.7864
216089.362262,-1.392649899344,-13.400566981602,15.276767494060,682256.4946,5763610.0244,74.7856
216089.367262,-1.409784247446,-13.396374294850,15.277032873675,682256.4977,5763610.0355,74.7847
216089.372262,-1.425368033195,-13.390580724708,15.276496258123,682256.5008,5763610.0467,74.7839
216089.377262,-1.444146863594,-13.382488659148,15.274562846707,682256.5039,5763610.0579,74.7830
216089.382262,-1.459474483799,-13.378054023177,15.271903594262,682256.5071,5763610.0692,74.7821
216089.387262,-1.478582751154,-13.375653824903,15.272091649765,682256.5102,5763610.0805,74.7813
216089.392262,-1.490420450180,-13.372455513844,15.269730880906,682256.5134,5763610.0919,74.7804
216089.397262,-1.504447889209,-13.366226571119,15.265787855130,682256.5166,5763610.1033,74.7796
216089.402262,-1.512326252054,-13.362084344429,15.260782933526,682256.5197,5763610.1147,74.7787
216089.407262,-1.524330411354,-13.359805365140,15.258338878516,682256.5229,5763610.1262,74.7778
216089.412262,-1.534438539638,-13.357083148115,15.254625658431,682256.5261,5763610.1378,74.7770
216089.417262,-1.544244171448,-13.349990917976,15.249180016933,682256.5293,5763610.1493,74.7761
216089.422262,-1.553359213381,-13.342632411883,15.243040556061,682256.5325,5763610.1610,74.7753
216089.427262,-1.560509426504,-13.335846135493,15.238837657237,682256.5357,5763610.1726,74.7744
216089.432262,-1.571638849213,-13.328165852079,15.236456420007,682256.5389,5763610.1843,74.7736
216089.437262,-1.576728233295,-13.318156137356,15.230908715613,682256.5421,5763610.1961,74.7728
216089.442262,-1.586495634941,-13.307176289194,15.226220667339,682256.5453,5763610.2079,74.7720
216089.447262,-1.588438160720,-13.297616734503,15.221524967475,682256.5486,5763610.2197,74.7711
216089.452262,-1.598940414140,-13.287939644010,15.220615798628,682256.5518,5763610.2316,74.7703
216089.457262,-1.606950162008,-13.278360162459,15.217303797141,682256.5551,5763610.2435,74.7695
216089.462262,-1.618157976893,-13.268583743463,15.213379674663,682256.5584,5763610.2555,74.7687
216089.467262,-1.627392051248,-13.259949591113,15.209617613714,682256.5617,5763610.2675,74.7679
216089.472262,-1.638426949324,-13.252041320455,15.207258532660,682256.5650,5763610.2796,74.7672
216089.477262,-1.651372398634,-13.243450490308,15.206329430022,682256.5684,5763610.2917,74.7664
216089.482262,-1.659341723266,-13.235698204759,15.202080634434,682256.5717,5763610.3038,74.7656
216089.487262,-1.668108809890,-13.227148144341,15.199422902184,682256.5750,5763610.3160,74.7649
216089.492262,-1.670476587177,-13.218363168406,15.196423181228,682256.5784,5763610.3282,74.7641
216089.497262,-1.675969461316,-13.207880241499,15.195939675206,682256.5817,5763610.3405,74.7634
216089.502262,-1.675538026986,-13.197090406306,15.193311236320,682256.5851,5763610.3528,74.7626
216089.507262,-1.676912913017,-13.185043015681,15.191888970613,682256.5884,5763610.3652,74.7619
216089.512262,-1.675612938472,-13.172289813453,15.190539804083,682256.5918,5763610.3776,74.7611
216089.517262,-1.675148729513,-13.158714398880,15.191284034822,682256.5952,5763610.3900,74.7604
216089.522262,-1.673517649143,-13.143875967378,15.190715243507,682256.5986,5763610.4025,74.7597
216089.527262,-1.668222334483,-13.127594422791,15.188866902982,682256.6020,5763610.4150,74.7589
216089.532262,-1.666017791889,-13.110232266665,15.187815741117,682256.6053,5763610.4276,74.7582
216089.537262,-1.657709284486,-13.093297916677,15.187133767518,682256.6088,5763610.4403,74.7575
216089.542262,-1.655100256075,-13.074277665599,15.186094593954,682256.6122,5763610.4529,74.7568
216089.547262,-1.645341174001,-13.054250243174,15.181487531064,682256.6156,5763610.4656,74.7561
216089.552262,-1.644034412874,-13.032193241449,15.178925816052,682256.6190,5763610.4784,74.7554
216089.557262,-1.639493500113,-13.012559363067,15.175817636058,682256.6225,5763610.4912,74.7547
216089.562262,-1.643022972359,-12.992084873907,15.174316345054,682256.6260,5763610.5040,74.7540
216089.567262,-1.645020937193,-12.970626750618,15.169560838832,682256.6295,5763610.5169,74.7533
216089.572262,-1.649649263957,-12.947446535787,15.165000734141,682256.6330,5763610.5298,74.7526
216089.577262,-1.656145809145,-12.926320102739,15.162951874360,682256.6365,5763610.5427,74.7520
216089.582262,-1.660313417725,-12.906833668230,15.160919841738,682256.6400,5763610.5557,74.7513
216089.587262,-1.666755697887,-12.886024846540,15.159188780931,682256.6435,5763610.5687,74.7506
216089.592262,-1.668224338371,-12.864355604054,15.155874805802,682256.6471,5763610.5818,74.7500
216089.597262,-1.673241600789,-12.844253742396,15.156044055472,682256.6506,5763610.5949,74.7493
216089.602262,-1.675617385722,-12.826880556248,15.157351302693,682256.6542,5763610.6080,74.7486
216089.607262,-1.680229697139,-12.809691249978,15.158724644118,682256.6578,5763610.6212,74.7480
216089.612262,-1.684815477132,-12.791924458706,15.158197567036,682256.6614,5763610.6344,74.7473
216089.617262,-1.688859832447,-12.777167000827,15.157864709379,682256.6649,5763610.6477,74.7467
216089.622262,-1.695827782669,-12.763798013869,15.159935879250,682256.6685,5763610.6610,74.7461
216089.627262,-1.696399829264,-12.750634230962,15.160105487185,682256.6721,5763610.6743,74.7454
216089.632262,-1.702576891073,-12.735406885523,15.159504356535,682256.6758,5763610.6877,74.7448
216089.637262,-1.701889806816,-12.721931428836,15.157348169803,682256.6794,5763610.7011,74.7442
216089.642262,-1.709954766475,-12.708658073280,15.158054997504,682256.6830,5763610.7145,74.7435
216089.647262,-1.709606301686,-12.694567347948,15.155683437977,682256.6866,5763610.7280,74.7429
216089.652262,-1.716623824985,-12.677558775239,15.155085083164,682256.6903,5763610.7415,74.7423
216089.657262,-1.719124806183,-12.662858529065,15.151764123140,682256.6939,5763610.7551,74.7417
216089.662262,-1.730606672120,-12.648824444747,15.151531215052,682256.6976,5763610.7687,74.7410
216089.667262,-1.738312360775,-12.633625412908,15.150268436853,682256.7013,5763610.7823,74.7404
216089.672262,-1.745931149189,-12.615764752710,15.149466706100,682256.7050,5763610.7960,74.7398
216089.677262,-1.754083150969,-12.598790807513,15.148685392824,682256.7087,5763610.8097,74.7392
216089.682262,-1.763097018231,-12.583607153787,15.148397373604,682256.7124,5763610.8234,74.7385
216089.687262,-1.774104351044,-12.567090480441,15.148616059630,682256.7161,5763610.8372,74.7379
216089.692262,-1.779542938409,-12.549085414670,15.148556822300,682256.7199,5763610.8510,74.7373
216089.697262,-1.787279584633,-12.531020419760,15.149553284507,682256.7236,5763610.8649,74.7367
216089.702262,-1.796665646397,-12.514154121869,15.150447124440,682256.7274,5763610.8788,74.7361
216089.707262,-1.809949560453,-12.496294176508,15.151262035125,682256.7312,5763610.8927,74.7355
216089.712262,-1.820679850362,-12.477324788705,15.152065920816,682256.7350,5763610.9067,74.7349
216089.717262,-1.830272046366,-12.458825779432,15.152814022563,682256.7387,5763610.9207,74.7343
216089.722262,-1.843288226278,-12.441054714468,15.153888909367,682256.7425,5763610.9347,74.7336
216089.727262,-1.856438688598,-12.423365377618,15.153515910054,682256.7463,5763610.9487,74.7330
216089.732262,-1.869254057425,-12.406932210048,15.154064141820,682256.7501,5763610.9629,74.7324
216089.737262,-1.875359246554,-12.393013217011,15.154295953890,682256.7539,5763610.9770,74.7318
216089.742262,-1.885605520768,-12.380579930353,15.155158995060,682256.7578,5763610.9912,74.7312
216089.747262,-1.894729752064,-12.368380083337,15.153737558109,682256.7616,5763611.0054,74.7306
216089.752262,-1.905530974276,-12.358313861732,15.154162192911,682256.7654,5763611.0196,74.7300
216089.757262,-1.911715406897,-12.351325650009,15.154827333670,682256.7693,5763611.0339,74.7294
216089.762262,-1.921758496218,-12.345247716708,15.156140305791,682256.7731,5763611.0482,74.7287
216089.767262,-1.932172403553,-12.337588313955,15.156062113716,682256.7770,5763611.0625,74.7281
216089.772262,-1.941893197959,-12.330800068577,15.156548122768,682256.7808,5763611.0769,74.7275
216089.777262,-1.948898901503,-12.325659006288,15.158799941540,682256.7847,5763611.0913,74.7269
216089.782262,-1.955771325122,-12.320518724702,15.160794971070,682256.7886,5763611.1057,74.7263
216089.787262,-1.964607445535,-12.312423587744,15.162369500901,682256.7924,5763611.1202,74.7257
216089.792262,-1.972610046546,-12.305309654831,15.164107979275,682256.7963,5763611.1347,74.7251
216089.797262,-1.976912183961,-12.299481203251,15.166999732655,682256.8002,5763611.1492,74.7245
216089.802262,-1.981874980278,-12.293554471110,15.169442280084,682256.8041,5763611.1638,74.7239
216089.807262,-1.989581397554,-12.286226947685,15.170529703076,682256.8080,5763611.1784,74.7233
216089.812262,-1.998655894878,-12.281063403491,15.171824665159,682256.8119,5763611.1931,74.7227
216089.817262,-2.005372743062,-12.278287566377,15.173700267446,682256.8158,5763611.2077,74.7222
216089.822262,-2.013833630859,-12.275454092021,15.174430897973,682256.8198,5763611.2224,74.7216
216089.827262,-2.023473297382,-12.270023002147,15.174371702085,682256.8237,5763611.2372,74.7210
216089.832262,-2.038256083487,-12.266646589823,15.175571599984,682256.8277,5763611.2520,74.7204
216089.837262,-2.051540775825,-12.266043544970,15.177393757113,682256.8316,5763611.2668,74.7199
216089.842262,-2.066339139787,-12.264280760085,15.177541302595,682256.8356,5763611.2816,74.7193
216089.847262,-2.081968673695,-12.258976271977,15.175989166414,682256.8396,5763611.2965,74.7187
216089.852262,-2.098918136800,-12.254324182312,15.176128616088,682256.8436,5763611.3114,74.7182
216089.857262,-2.114058125085,-12.252620787798,15.178328640867,682256.8476,5763611.3264,74.7176
216089.862262,-2.127376169023,-12.249915322670,15.179117263007,682256.8516,5763611.3414,74.7171
216089.867262,-2.143393563067,-12.243548379884,15.178325232026,682256.8556,5763611.3564,74.7165
216089.872262,-2.155451829638,-12.238289227814,15.177690872198,682256.8596,5763611.3714,74.7160
216089.877262,-2.170752003603,-12.235511850302,15.182227992976,682256.8636,5763611.3865,74.7155
216089.882262,-2.180235616042,-12.233146592840,15.184163842006,682256.8676,5763611.4017,74.7149
216089.887262,-2.199188758938,-12.226465335700,15.185416850868,682256.8717,5763611.4168,74.7144
216089.892262,-2.210865438925,-12.220906261213,15.184953913989,682256.8757,5763611.4320,74.7139
216089.897262,-2.229314250842,-12.218101355713,15.189969504438,682256.8798,5763611.4472,74.7133
216089.902262,-2.240332917159,-12.215584355831,15.192112940093,682256.8838,5763611.4625,74.7128
216089.907262,-2.258876650745,-12.209089068445,15.192821759734,682256.8879,5763611.4778,74.7122
216089.912262,-2.275879544783,-12.204518594734,15.190841771305,682256.8919,5763611.4931,74.7117
216089.917262,-2.294000439654,-12.204111883396,15.192709214245,682256.8960,5763611.5084,74.7112
216089.922262,-2.314228045531,-12.204470619222,15.194423107519,682256.9001,5763611.5238,74.7107
216089.927262,-2.331052196703,-12.202329953598,15.191658373679,682256.9042,5763611.5392,74.7101
216089.932262,-2.354943726347,-12.199861163499,15.189471685225,682256.9083,5763611.5547,74.7096
216089.937262,-2.369771762080,-12.203520746674,15.188439174971,682256.9124,5763611.5701,74.7091
216089.942262,-2.390968501779,-12.207366875780,15.191422541174,682256.9165,5763611.5856,74.7086
216089.947262,-2.404279777907,-12.210084772453,15.189796671462,682256.9206,5763611.6012,74.7081
216089.952262,-2.420934944004,-12.210411580168,15.188677757793,682256.9247,5763611.6167,74.7076
216089.957262,-2.433713825135,-12.215330103439,15.190254683567,682256.9288,5763611.6323,74.7071
216089.962262,-2.444095923787,-12.222280868856,15.194561954590,682256.9329,5763611.6480,74.7065
216089.967262,-2.458667327393,-12.227498735502,15.199144663898,682256.9370,5763611.6636,74.7060
216089.972262,-2.462957394271,-12.231663201898,15.199102147773,682256.9411,5763611.6793,74.7055
216089.977262,-2.475413630360,-12.236822844526,15.202861080063,682256.9452,5763611.6951,74.7050
216089.982262,-2.475309616994,-12.244885133621,15.205846476483,682256.9493,5763611.7108,74.7044
216089.987262,-2.487041525316,-12.252759838439,15.210852681787,682256.9534,5763611.7266,74.7039
216089.992262,-2.487438048635,-12.260886574992,15.209442655683,682256.9575,5763611.7424,74.7034
216089.997262,-2.494417088265,-12.269513243833,15.209230957924,682256.9616,5763611.7583,74.7029
216090.002262,-2.497036035666,-12.281076739585,15.208648788109,682256.9657,5763611.7742,74.7024
216090.007262,-2.507656008584,-12.295508170895,15.209945962415,682256.9698,5763611.7901,74.7019
216090.012262,-2.520029097728,-12.310477711014,15.209163803214,682256.9739,5763611.8060,74.7014
216090.017262,-2.532401211572,-12.327014607402,15.206643709151,682256.9781,5763611.8220,74.7008
216090.022262,-2.547849550443,-12.343997384458,15.207267518567,682256.9822,5763611.8380,74.7003
216090.027262,-2.562955461089,-12.363530714495,15.209368526697,682256.9864,5763611.8540,74.6998
216090.032262,-2.582116971581,-12.382921345550,15.212387361309,682256.9906,5763611.8701,74.6993
216090.037262,-2.601209849246,-12.402837124590,15.212872445395,682256.9948,5763611.8862,74.6987
216090.042262,-2.620979772684,-12.421802258974,15.215915179927,682256.9990,5763611.9023,74.6982
216090.047262,-2.643319169568,-12.441762167642,15.221752209523,682257.0032,5763611.9184,74.6976
216090.052262,-2.662648226272,-12.462067658206,15.227503013238,682257.0074,5763611.9346,74.6971
216090.057262,-2.683810585751,-12.480009916934,15.232071858281,682257.0116,5763611.9508,74.6965
216090.062262,-2.696724348130,-12.496250939671,15.235166085857,682257.0158,5763611.9671,74.6960
216090.067262,-2.713327164833,-12.512500339192,15.240909146000,682257.0201,5763611.9834,74.6954
216090.072262,-2.723910198755,-12.529749746352,15.245698641941,682257.0243,5763611.9997,74.6949
216090.077262,-2.734209200962,-12.544178261199,15.248233340175,682257.0285,5763612.0161,74.6943
216090.082262,-2.738816959583,-12.555430751071,15.248466346631,682257.0327,5763612.0325,74.6938
216090.087262,-2.745306332136,-12.567241482758,15.249963609791,682257.0369,5763612.0490,74.6933
216090.092262,-2.754201890482,-12.580961590692,15.253362431238,682257.0411,5763612.0655,74.6928
216090.097262,-2.765437274117,-12.593737817025,15.255098936310,682257.0453,5763612.0820,74.6922
216090.102262,-2.776686495431,-12.602252042569,15.255609178540,682257.0495,5763612.0985,74.6917
216090.107262,-2.787525611321,-12.610307731526,15.256089836731,682257.0537,5763612.1151,74.6911
216090.112262,-2.801716639196,-12.620672197735,15.260590379115,682257.0580,5763612.1318,74.6906
216090.117262,-2.819140267076,-12.630903372103,15.264488972791,682257.0622,5763612.1484,74.6900
216090.122262,-2.836028214987,-12.638558064682,15.266491718475,682257.0665,5763612.1651,74.6895
216090.127262,-2.852675457673,-12.645160314793,15.268239879647,682257.0707,5763612.1818,74.6889
216090.132262,-2.868910427530,-12.655125003218,15.272307620408,682257.0750,5763612.1986,74.6884
216090.137262,-2.891255253437,-12.666287098105,15.277400019856,682257.0793,5763612.2153,74.6878
216090.142262,-2.913205855121,-12.677484433892,15.280431347558,682257.0836,5763612.2322,74.6873
216090.147262,-2.936239628206,-12.687889105436,15.283635685431,682257.0879,5763612.2490,74.6868
216090.152262,-2.958221225503,-12.700852900382,15.288492866330,682257.0922,5763612.2659,74.6863
216090.157262,-2.984849284214,-12.713843057672,15.295368726048,682257.0965,5763612.2828,74.6858
216090.162262,-3.010971101340,-12.725129460650,15.301438382291,682257.1008,5763612.2998,74.6852
216090.167262,-3.036229420772,-12.735336817707,15.306586008807,682257.1052,5763612.3168,74.6847
216090.172262,-3.057865792701,-12.746546435187,15.312506839236,682257.1095,5763612.3338,74.6842
216090.177262,-3.081003212922,-12.756787967566,15.319150923828,682257.1138,5763612.3509,74.6837
216090.182262,-3.102083813398,-12.765368314643,15.324766447719,682257.1181,5763612.3680,74.6831
216090.187262,-3.119912902172,-12.772211734641,15.329866590735,682257.1224,5763612.3851,74.6826
216090.192262,-3.137377329842,-12.780594774748,15.334674837963,682257.1268,5763612.4023,74.6820
216090.197262,-3.154098479826,-12.788598024245,15.339071752585,682257.1311,5763612.4195,74.6814
216090.202262,-3.172746183031,-12.795241415415,15.343693525025,682257.1354,5763612.4367,74.6809
216090.207262,-3.184462602534,-12.801159245756,15.346972492684,682257.1397,5763612.4540,74.6803
216090.212262,-3.199054792181,-12.806965147870,15.350159817652,682257.1440,5763612.4713,74.6797
216090.217262,-3.210543409516,-12.812874987754,15.351822922400,682257.1483,5763612.4887,74.6792
216090.222262,-3.228441090372,-12.817390638323,15.355294830349,682257.1526,5763612.5061,74.6786
216090.227262,-3.236224704258,-12.821641533500,15.357957307568,682257.1569,5763612.5235,74.6780
216090.232262,-3.245621901361,-12.824205885919,15.361485982775,682257.1613,5763612.5410,74.6775
216090.237262,-3.251634716677,-12.824899863375,15.363229140200,682257.1656,5763612.5585,74.6769
216090.242262,-3.262438655875,-12.824489452220,15.366978934981,682257.1699,5763612.5761,74.6764
216090.247262,-3.270926528559,-12.824792833074,15.373051184628,682257.1742,5763612.5936,74.6758
216090.252262,-3.276184362531,-12.825345468577,15.378123187125,682257.1786,5763612.6112,74.6753
216090.257262,-3.284793732434,-12.823152193928,15.382690445977,682257.1829,5763612.6289,74.6747
216090.262262,-3.292651354394,-12.821135500680,15.386093793682,682257.1872,5763612.6466,74.6741
216090.267262,-3.302957905982,-12.821636109208,15.393547153116,682257.1916,5763612.6643,74.6735
216090.272262,-3.308675503679,-12.826010429819,15.399508281022,682257.1959,5763612.6820,74.6729
216090.277262,-3.316232910740,-12.829154769444,15.403328422538,682257.2002,5763612.6998,74.6723
216090.282262,-3.325954276509,-12.832284928385,15.405849098659,682257.2046,5763612.7176,74.6717
216090.287262,-3.333840075881,-12.839002983747,15.411220579272,682257.2089,5763612.7354,74.6710
216090.292262,-3.345609125527,-12.849237564950,15.418340498439,682257.2133,5763612.7533,74.6704
216090.297262,-3.355179772605,-12.858860173123,15.422033202919,682257.2176,5763612.7712,74.6698
216090.302262,-3.372869242194,-12.865205611502,15.425967407690,682257.2220,5763612.7892,74.6692
216090.307262,-3.384552256329,-12.874910047565,15.431907863971,682257.2263,5763612.8071,74.6686
216090.312262,-3.400120420611,-12.886386179967,15.442095171566,682257.2307,5763612.8252,74.6680
216090.317262,-3.412116594580,-12.895286419555,15.449377049704,682257.2351,5763612.8432,74.6674
216090.322262,-3.430655854986,-12.899928681878,15.454707818204,682257.2394,5763612.8613,74.6668
216090.327262,-3.445245077188,-12.906528271067,15.462500533957,682257.2438,5763612.8794,74.6661
216090.332262,-3.460974210463,-12.915866709122,15.474083896749,682257.2482,5763612.8976,74.6655
216090.337262,-3.472696921072,-12.922782168969,15.482436382890,682257.2526,5763612.9157,74.6649
216090.342262,-3.488552817357,-12.923060941464,15.487231165787,682257.2570,5763612.9340,74.6642
216090.347262,-3.498830833145,-12.924714162108,15.493165478162,682257.2613,5763612.9522,74.6636
216090.352262,-3.512103540056,-12.929736193677,15.503864271998,682257.2657,5763612.9705,74.6629
216090.357262,-3.522981695754,-12.933743088562,15.510812029569,682257.2701,5763612.9889,74.6623
216090.362262,-3.539228668322,-12.931005640568,15.513745651393,682257.2745,5763613.0073,74.6616
216090.367262,-3.551374486883,-12.929393458475,15.516069528480,682257.2789,5763613.0257,74.6610
216090.372262,-3.565189266714,-12.931594450429,15.524081237902,682257.2833,5763613.0441,74.6604
216090.377262,-3.578590119993,-12.934716213575,15.531201770697,682257.2877,5763613.0626,74.6597
216090.382262,-3.596417440581,-12.931927745547,15.533388958194,682257.2921,5763613.0811,74.6591
216090.387262,-3.613771324280,-12.928330971683,15.534923610951,682257.2965,5763613.0997,74.6584
216090.392262,-3.628170176401,-12.928706188617,15.541641811578,682257.3009,5763613.1183,74.6578
216090.397262,-3.648846086396,-12.931160107617,15.550997713830,682257.3053,5763613.1369,74.6572
216090.402262,-3.669601697013,-12.930639116190,15.555777030097,682257.3097,5763613.1556,74.6565
216090.407262,-3.691428399068,-12.928639560866,15.560134776458,682257.3141,5763613.1742,74.6559
216090.412262,-3.708249309576,-12.930912119761,15.567188539185,682257.3185,5763613.1930,74.6552
216090.417262,-3.725071761345,-12.936340710330,15.577565980989,682257.3230,5763613.2117,74.6546
216090.422262,-3.749461294993,-12.940571746383,15.587175830490,682257.3274,5763613.2305,74.6539
216090.427262,-3.766298579442,-12.945814298145,15.591621935398,682257.3318,5763613.2493,74.6532
216090.432262,-3.787750862063,-12.952823997695,15.600653358654,682257.3362,5763613.2682,74.6526
216090.437262,-3.798886554555,-12.963823069643,15.609422134888,682257.3406,5763613.2871,74.6519
216090.442262,-3.824922440690,-12.972297459929,15.620517966685,682257.3451,5763613.3060,74.6513
216090.447262,-3.841070570796,-12.980500643531,15.625242883874,682257.3495,5763613.3250,74.6506
216090.452262,-3.861067285449,-12.987713429770,15.632107391742,682257.3539,5763613.3440,74.6499
216090.457262,-3.870710751732,-12.996879475515,15.638324003811,682257.3583,5763613.3630,74.6493
216090.462262,-3.883721148496,-13.004048030469,15.645768808434,682257.3627,5763613.3821,74.6486
216090.467262,-3.895859562253,-13.010308270162,15.649765770830,682257.3671,5763613.4012,74.6480
216090.472262,-3.903929012792,-13.016736992131,15.651725796883,682257.3715,5763613.4203,74.6473
216090.477262,-3.912512984937,-13.023603432175,15.655856308397,682257.3759,5763613.4395,74.6466
216090.482262,-3.920056357633,-13.030999445346,15.660232058656,682257.3803,5763613.4588,74.6460
216090.487262,-3.936913620252,-13.036540253330,15.664832924650,682257.3847,5763613.4780,74.6453
216090.492262,-3.951947597737,-13.041286449762,15.666804669235,682257.3891,5763613.4973,74.6446
216090.497262,-3.965717822618,-13.044743827468,15.669734654350,682257.3935,5763613.5166,74.6439
216090.502262,-3.981748372646,-13.047736488686,15.675403506490,682257.3979,5763613.5360,74.6432
216090.507262,-3.993427390487,-13.048911623837,15.680030991125,682257.4024,5763613.5554,74.6424
216090.512262,-4.011094830321,-13.046796659792,15.684402775249,682257.4068,5763613.5748,74.6417
216090.517262,-4.012290694846,-13.042909580666,15.684674585444,682257.4112,5763613.5943,74.6410
216090.522262,-4.023789706523,-13.036682357404,15.691074496788,682257.4156,5763613.6138,74.6403
216090.527262,-4.024637443126,-13.032509879343,15.693513558843,682257.4200,5763613.6334,74.6396
216090.532262,-4.040596693090,-13.026931105125,15.697886552934,682257.4244,5763613.6530,74.6389
216090.537262,-4.044291453951,-13.020788207669,15.696520256190,682257.4288,5763613.6726,74.6382
216090.542262,-4.055194564164,-13.013783084910,15.698538297153,682257.4332,5763613.6923,74.6374
216090.547262,-4.062069779243,-13.008106191239,15.700730062324,682257.4376,5763613.7120,74.6367
216090.552262,-4.072761280136,-13.003829466108,15.702416396185,682257.4420,5763613.7317,74.6360
216090.557262,-4.081921580796,-12.997320695189,15.702030815395,682257.4464,5763613.7515,74.6352
216090.562262,-4.084956718148,-12.990933741788,15.700635691424,682257.4508,5763613.7713,74.6345
216090.567262,-4.089107214233,-12.984438623494,15.701740255618,682257.4552,5763613.7911,74.6337
216090.572262,-4.091405135814,-12.980128461006,15.702163296175,682257.4596,5763613.8110,74.6329
216090.577262,-4.096286648536,-12.974016729616,15.701930409342,682257.4640,5763613.8309,74.6322
216090.582262,-4.100155110398,-12.967898326870,15.700455509820,682257.4684,5763613.8508,74.6314
216090.587262,-4.103263389209,-12.962341164516,15.700485708789,682257.4728,5763613.8708,74.6306
216090.592262,-4.111580646272,-12.958336950579,15.702183795642,682257.4772,5763613.8908,74.6298
216090.597262,-4.115878673896,-12.953520566839,15.701950584876,682257.4816,5763613.9109,74.6290
216090.602262,-4.123275855946,-12.947595151893,15.701975174785,682257.4860,5763613.9310,74.6282
216090.607262,-4.122964326252,-12.943689924352,15.701380881362,682257.4903,5763613.9511,74.6274
216090.612262,-4.127381771896,-12.940900224439,15.702507406589,682257.4947,5763613.9712,74.6266
216090.617262,-4.128530308568,-12.936887330136,15.701803755913,682257.4991,5763613.9914,74.6258
216090.622262,-4.129884644250,-12.931062798968,15.700907632497,682257.5035,5763614.0117,74.6250
216090.627262,-4.130270734667,-12.926071393119,15.700171452015,682257.5079,5763614.0319,74.6242
216090.632262,-4.135153903179,-12.922645356086,15.699489632632,682257.5123,5763614.0522,74.6234
216090.637262,-4.142189050777,-12.916791863926,15.697871750455,682257.5167,5763614.0726,74.6226
216090.642262,-4.150959085511,-12.908572485829,15.694737972180,682257.5211,5763614.0929,74.6218
216090.647262,-4.155955068534,-12.899395730940,15.692028344099,682257.5255,5763614.1133,74.6209
216090.652262,-4.166727696252,-12.891143547812,15.689755425193,682257.5298,5763614.1338,74.6201
216090.657262,-4.175473112521,-12.881845400977,15.685170249669,682257.5342,5763614.1542,74.6193
216090.662262,-4.189399106910,-12.869352674296,15.681521466984,682257.5386,5763614.1747,74.6184
216090.667262,-4.193470890375,-12.857721621646,15.677484374746,682257.5430,5763614.1953,74.6176
216090.672262,-4.203363138208,-12.846074868335,15.676137075027,682257.5475,5763614.2158,74.6168
216090.677262,-4.213237905314,-12.834951072793,15.672115948016,682257.5519,5763614.2365,74.6159
216090.682262,-4.226428625037,-12.822244352542,15.667998810614,682257.5563,5763614.2571,74.6151
216090.687262,-4.237969513047,-12.810414286817,15.665976855268,682257.5607,5763614.2778,74.6143
216090.692262,-4.245277441504,-12.799516921956,15.663240495196,682257.5651,5763614.2985,74.6134
216090.697262,-4.260887697562,-12.786659547003,15.661175928515,682257.5695,5763614.3192,74.6126
216090.702262,-4.272863344443,-12.773144031273,15.655431032438,682257.5739,5763614.3400,74.6117
216090.707262,-4.288321724407,-12.759961693604,15.653458381592,682257.5783,5763614.3608,74.6108
216090.712262,-4.297223775892,-12.748732840397,15.649739332316,682257.5827,5763614.3817,74.6100
216090.717262,-4.309774258837,-12.735267941903,15.645334869605,682257.5871,5763614.4026,74.6091
216090.722262,-4.322368063557,-12.718791252499,15.638984484328,682257.5915,5763614.4235,74.6082
216090.727262,-4.327242875129,-12.703601257133,15.633033607312,682257.5959,5763614.4444,74.6073
216090.732262,-4.334613634509,-12.689741077525,15.629322860177,682257.6003,5763614.4654,74.6064
216090.737262,-4.337525764957,-12.675961597076,15.621416266659,682257.6047,5763614.4864,74.6054
216090.742262,-4.350429796973,-12.658555161006,15.613609617967,682257.6091,5763614.5074,74.6045
216090.747262,-4.355590933756,-12.643865250063,15.605578974069,682257.6134,5763614.5285,74.6036
216090.752262,-4.364833569902,-12.631243824976,15.601379747429,682257.6178,5763614.5496,74.6027
216090.757262,-4.372384191363,-12.619891221198,15.594160206995,682257.6222,5763614.5708,74.6017
216090.762262,-4.383120520840,-12.605609412377,15.585371988943,682257.6265,5763614.5919,74.6008
216090.767262,-4.392130643823,-12.593040168381,15.578461061084,682257.6309,5763614.6131,74.5999
216090.772262,-4.394014617495,-12.584020025203,15.573630581538,682257.6352,5763614.6344,74.5989
216090.777262,-4.399529984256,-12.575752035005,15.569381904665,682257.6396,5763614.6556,74.5979
216090.782262,-4.402321683778,-12.565692153478,15.560368924802,682257.6440,5763614.6769,74.5970
216090.787262,-4.409212130626,-12.556775945280,15.553615974034,682257.6483,5763614.6983,74.5960
216090.792262,-4.411164639585,-12.551757105469,15.548759146218,682257.6527,5763614.7196,74.5950
216090.797262,-4.418097619927,-12.547621316558,15.543277691480,682257.6570,5763614.7410,74.5940
216090.802262,-4.426628669751,-12.539197333060,15.533728649327,682257.6614,5763614.7624,74.5930
216090.807262,-4.437224143192,-12.530471370275,15.523151797166,682257.6658,5763614.7839,74.5920
216090.812262,-4.445065565880,-12.523794495028,15.516543005155,682257.6701,5763614.8053,74.5910
216090.817262,-4.454371663080,-12.517875503306,15.509030040942,682257.6745,5763614.8268,74.5900
216090.822262,-4.462112633667,-12.506953248898,15.496797169740,682257.6788,5763614.8484,74.5889
216090.827262,-4.470328591260,-12.493589422817,15.483569604069,682257.6831,5763614.8700,74.5879
216090.832262,-4.472384959395,-12.483795315495,15.473611054367,682257.6875,5763614.8916,74.5869
216090.837262,-4.477934927402,-12.475780611462,15.465705276175,682257.6918,5763614.9132,74.5859
216090.842262,-4.485060661147,-12.464182614095,15.453298013978,682257.6962,5763614.9349,74.5848
216090.847262,-4.493859846835,-12.449896816239,15.438420484801,682257.7005,5763614.9566,74.5838
216090.852262,-4.502813311685,-12.438213967115,15.428093511442,682257.7048,5763614.9784,74.5828
216090.857262,-4.510192548998,-12.430347159881,15.419184084269,682257.7091,5763615.0002,74.5818
216090.862262,-4.523546947775,-12.418981325350,15.409092321395,682257.7134,5763615.0220,74.5807
216090.867262,-4.533358364891,-12.404339690745,15.393506669243,682257.7178,5763615.0438,74.5797
216090.872262,-4.540812562692,-12.388599022634,15.380791182838,682257.7221,5763615.0657,74.5786
216090.877262,-4.547701530967,-12.375017146306,15.370160212631,682257.7264,5763615.0876,74.5776
216090.882262,-4.554673747343,-12.359517721958,15.358618546326,682257.7307,5763615.1096,74.5766
216090.887262,-4.569046281097,-12.339331093274,15.343667399660,682257.7350,5763615.1316,74.5755
216090.892262,-4.570922368056,-12.318885047773,15.326406866832,682257.7393,5763615.1536,74.5745
216090.897262,-4.582599106496,-12.298014546343,15.314704134523,682257.7436,5763615.1756,74.5734
216090.902262,-4.585388832334,-12.279052677294,15.300044344914,682257.7479,5763615.1977,74.5724
216090.907262,-4.605048560697,-12.256685316959,15.286316626469,682257.7522,5763615.2198,74.5713
216090.912262,-4.611081403416,-12.235951829462,15.267942608308,682257.7565,5763615.2420,74.5702
216090.917262,-4.621234789607,-12.214646560745,15.253686757115,682257.7608,5763615.2641,74.5692
216090.922262,-4.628287480021,-12.194751020068,15.239135133369,682257.7650,5763615.2863,74.5681
216090.927262,-4.639559561304,-12.173791514494,15.223871647050,682257.7693,5763615.3085,74.5670
216090.932262,-4.652154981858,-12.153672596199,15.208502388659,682257.7736,5763615.3308,74.5659
216090.937262,-4.654622374081,-12.135460501713,15.190101190735,682257.7778,5763615.3531,74.5648
216090.942262,-4.663013207320,-12.116360362010,15.174591411161,682257.7821,5763615.3754,74.5637
216090.947262,-4.666928850108,-12.098778383022,15.155837193741,682257.7863,5763615.3977,74.5626
216090.952262,-4.676722817896,-12.082583399345,15.139380073390,682257.7906,5763615.4201,74.5615
216090.957262,-4.686107662300,-12.067900212652,15.121604117842,682257.7948,5763615.4425,74.5603
216090.962262,-4.690898636231,-12.053743829175,15.103868449583,682257.7990,5763615.4649,74.5592
216090.967262,-4.702016183821,-12.038665179583,15.087296017486,682257.8033,5763615.4873,74.5581
216090.972262,-4.705568656716,-12.027550650226,15.067561248040,682257.8075,5763615.5098,74.5569
216090.977262,-4.718126902320,-12.016586956009,15.051608984001,682257.8117,5763615.5323,74.5558
216090.982262,-4.717341747141,-12.008506270094,15.032253151393,682257.8159,5763615.5548,74.5546
216090.987262,-4.725844418200,-11.999167914691,15.017187336922,682257.8201,5763615.5773,74.5534
216090.992262,-4.727056386422,-11.994155720316,15.001269795501,682257.8243,5763615.5999,74.5523
216090.997262,-4.731641219554,-11.991072719467,14.986254395942,682257.8285,5763615.6225,74.5511
216091.002262,-4.729360531989,-11.987749941299,14.969227055373,682257.8328,5763615.6450,74.5499
216091.007262,-4.725718394562,-11.985478851235,14.952439617953,682257.8370,5763615.6677,74.5487
216091.012262,-4.721353917845,-11.985899166342,14.936972377755,682257.8413,5763615.6903,74.5476
216091.017262,-4.719877039653,-11.988666508981,14.921272060597,682257.8455,5763615.7130,74.5464
216091.022262,-4.709077580220,-11.991835486773,14.903012274282,682257.8498,5763615.7357,74.5452
216091.027262,-4.700070680807,-11.994016148018,14.885221598914,682257.8540,5763615.7584,74.5439
216091.032262,-4.686076588491,-11.999413974888,14.865516718889,682257.8582,5763615.7811,74.5427
216091.037262,-4.684750061375,-12.006243896978,14.848823438855,682257.8624,5763615.8039,74.5415
216091.042262,-4.673405601139,-12.014921767590,14.828377131398,682257.8666,5763615.8267,74.5403
216091.047262,-4.664384974971,-12.021257350266,14.810035485334,682257.8708,5763615.8495,74.5391
216091.052262,-4.652049177160,-12.029534675833,14.790435645079,682257.8750,5763615.8724,74.5379
216091.057262,-4.648073146075,-12.039380934038,14.773800780893,682257.8792,5763615.8952,74.5366
216091.062262,-4.646600361858,-12.050173545759,14.757017793976,682257.8834,5763615.9181,74.5354
216091.067262,-4.641043346166,-12.061711989886,14.739434468299,682257.8876,5763615.9411,74.5342
216091.072262,-4.638240261515,-12.073767148905,14.723306777433,682257.8918,5763615.9640,74.5329
216091.077262,-4.637321863562,-12.088020035991,14.706534063699,682257.8960,5763615.9870,74.5317
216091.082262,-4.638767966337,-12.101881907986,14.691038471344,682257.9002,5763616.0100,74.5304
216091.087262,-4.643836558535,-12.117254909985,14.676473343119,682257.9044,5763616.0330,74.5292
216091.092262,-4.643120100682,-12.134094738690,14.660153561354,682257.9086,5763616.0560,74.5279
216091.097262,-4.656708170637,-12.150351905580,14.646628902734,682257.9128,5763616.0791,74.5266
216091.102262,-4.660608972648,-12.166691647223,14.628560250613,682257.9170,5763616.1022,74.5253
216091.107262,-4.679994188392,-12.180218435819,14.616337669346,682257.9212,5763616.1253,74.5240
216091.112262,-4.685440955149,-12.196311432903,14.599018026766,682257.9254,5763616.1485,74.5227
216091.117262,-4.705282306022,-12.209504102414,14.584112385065,682257.9296,5763616.1717,74.5214
216091.122262,-4.718495488860,-12.220479287001,14.564879022114,682257.9338,5763616.1949,74.5201
216091.127262,-4.732584579250,-12.229971190801,14.547613164408,682257.9380,5763616.2181,74.5188
216091.132262,-4.746435402213,-12.238725220098,14.532097819438,682257.9422,5763616.2414,74.5175
216091.137262,-4.755312324396,-12.247550840926,14.513045230752,682257.9464,5763616.2647,74.5162
216091.142262,-4.776874885506,-12.250416664222,14.495205983796,682257.9506,5763616.2881,74.5149
216091.147262,-4.787237541115,-12.252861212416,14.474743000550,682257.9547,5763616.3115,74.5136
216091.152262,-4.804162769979,-12.252683640393,14.460356570068,682257.9589,5763616.3349,74.5123
216091.157262,-4.812910193059,-12.252233955918,14.442780215331,682257.9630,5763616.3583,74.5110
216091.162262,-4.824626911337,-12.244918404373,14.424613773505,682257.9672,5763616.3818,74.5096
216091.167262,-4.833790847508,-12.235002420501,14.406686443810,682257.9713,5763616.4053,74.5083
216091.172262,-4.831514751261,-12.225171960556,14.390688841205,682257.9754,5763616.4289,74.5070
216091.177262,-4.835704710789,-12.213314364888,14.376885285527,682257.9795,5763616.4525,74.5057
216091.182262,-4.827795064975,-12.197889580747,14.356157313755,682257.9836,5763616.4761,74.5044
216091.187262,-4.833600704549,-12.179421102405,14.339183725240,682257.9877,5763616.4997,74.5031
216091.192262,-4.825961597057,-12.165854145563,14.321902971016,682257.9917,5763616.5234,74.5017
216091.197262,-4.829785196619,-12.153302930189,14.308123718962,682257.9958,5763616.5471,74.5004
216091.202262,-4.829105349243,-12.139216540442,14.288219818333,682257.9998,5763616.5708,74.4990
216091.207262,-4.833219344423,-12.124666405792,14.267577542787,682258.0039,5763616.5946,74.4977
216091.212262,-4.831721822079,-12.113939480552,14.250130084523,682258.0079,5763616.6184,74.4963
216091.217262,-4.831349255762,-12.107776608432,14.233871415703,682258.0120,5763616.6422,74.4949
216091.222262,-4.833362505757,-12.099223729247,14.215051949299,682258.0160,5763616.6660,74.4936
216091.227262,-4.835937472307,-12.090268938381,14.192965759699,682258.0201,5763616.6899,74.4922
216091.232262,-4.836373145788,-12.085221650934,14.174503103766,682258.0241,5763616.7138,74.4908
216091.237262,-4.840428660527,-12.083835854595,14.159404884206,682258.0281,5763616.7376,74.4895
216091.242262,-4.845301472613,-12.081689140085,14.142948854779,682258.0322,5763616.7616,74.4881
216091.247262,-4.858144120890,-12.077331457380,14.124972875454,682258.0362,5763616.7855,74.4867
216091.252262,-4.864868243485,-12.076023502145,14.108773343413,682258.0402,5763616.8095,74.4853
216091.257262,-4.874938247430,-12.076619831630,14.097626357770,682258.0442,5763616.8335,74.4839
216091.262262,-4.880699952705,-12.076040006585,14.085031705693,682258.0482,5763616.8575,74.4825
216091.267262,-4.889489037085,-12.072776124830,14.070793319875,682258.0522,5763616.8816,74.4811
216091.272262,-4.892495004180,-12.071929606752,14.057625848420,682258.0562,5763616.9056,74.4796
216091.277262,-4.895257606019,-12.073751005303,14.046165180837,682258.0602,5763616.9297,74.4782
216091.282262,-4.898473946790,-12.073492682935,14.034409523416,682258.0641,5763616.9539,74.4768
216091.287262,-4.903514151060,-12.071006063249,14.020061669808,682258.0681,5763616.9780,74.4753
216091.292262,-4.905010524256,-12.068941881276,14.005837125279,682258.0720,5763617.0022,74.4739
216091.297262,-4.909503229771,-12.068157775727,13.992303545091,682258.0760,5763617.0265,74.4724
216091.302262,-4.910122779317,-12.064562273959,13.977594304399,682258.0799,5763617.0507,74.4710
216091.307262,-4.916277665373,-12.056301253965,13.961898143105,682258.0838,5763617.0750,74.4696
216091.312262,-4.910670684856,-12.047851916720,13.944017212025,682258.0877,5763617.0993,74.4681
216091.317262,-4.910302440216,-12.038208209598,13.928702690642,682258.0916,5763617.1237,74.4667
216091.322262,-4.903719852127,-12.028679311400,13.911170138175,682258.0955,5763617.1480,74.4653
216091.327262,-4.904819520270,-12.015662632689,13.895264561884,682258.0994,5763617.1724,74.4639
216091.332262,-4.900307990716,-12.004494101890,13.878636904738,682258.1033,5763617.1969,74.4624
216091.337262,-4.898157269515,-11.993310634943,13.864072528164,682258.1071,5763617.2213,74.4610
216091.342262,-4.898797701180,-11.982087708731,13.850530837101,682258.1110,5763617.2458,74.4596
216091.347262,-4.903368719868,-11.972498166271,13.837633556361,682258.1149,5763617.2703,74.4581
216091.352262,-4.909003508285,-11.965481463832,13.826655864442,682258.1187,5763617.2948,74.4566
216091.357262,-4.909524421138,-11.959610861192,13.814771834007,682258.1226,5763617.3194,74.4552
216091.362262,-4.913082066565,-11.952618198704,13.803526404841,682258.1264,5763617.3439,74.4537
216091.367262,-4.919121664587,-11.945893839249,13.792207581503,682258.1303,5763617.3685,74.4522
216091.372262,-4.927407614695,-11.943247364471,13.781617820858,682258.1341,5763617.3931,74.4507
216091.377262,-4.934357426466,-11.942148401982,13.770369463768,682258.1379,5763617.4178,74.4492
216091.382262,-4.941495695485,-11.940322163066,13.757035594983,682258.1418,5763617.4424,74.4477
216091.387262,-4.949211674627,-11.937652194575,13.743911423813,682258.1456,5763617.4671,74.4462
216091.392262,-4.958749049086,-11.938373636622,13.732004423335,682258.1494,5763617.4918,74.4447
216091.397262,-4.966229269248,-11.940650303463,13.720586830842,682258.1532,5763617.5166,74.4432
216091.402262,-4.970576621536,-11.941276494164,13.707192233520,682258.1570,5763617.5413,74.4417
216091.407262,-4.970100188029,-11.939857857560,13.693208038776,682258.1607,5763617.5661,74.4401
216091.412262,-4.963471621535,-11.939685097963,13.680898804855,682258.1645,5763617.5909,74.4386
216091.417262,-4.950808796826,-11.939921132400,13.670692519408,682258.1682,5763617.6158,74.4371
216091.422262,-4.935117511677,-11.938567389336,13.658926269689,682258.1719,5763617.6407,74.4355
216091.427262,-4.921735836604,-11.936312853344,13.646582558609,682258.1756,5763617.6656,74.4340
216091.432262,-4.907597366560,-11.937229919523,13.635257935020,682258.1793,5763617.6905,74.4324
216091.437262,-4.894130920271,-11.939779837690,13.626560841946,682258.1830,5763617.7154,74.4309
216091.442262,-4.884365334232,-11.942532082867,13.615864910330,682258.1867,5763617.7404,74.4293
216091.447262,-4.872952054822,-11.944610818395,13.603582987935,682258.1903,5763617.7654,74.4277
216091.452262,-4.867134551390,-11.948963898602,13.592084226890,682258.1940,5763617.7904,74.4262
216091.457262,-4.851985597676,-11.955742020873,13.580680898872,682258.1976,5763617.8155,74.4246
216091.462262,-4.844136748772,-11.961302917295,13.570710021737,682258.2013,5763617.8406,74.4231
216091.467262,-4.827470252617,-11.967719779321,13.555792947861,682258.2049,5763617.8657,74.4215
216091.472262,-4.819660197148,-11.973244965528,13.543229330408,682258.2085,5763617.8908,74.4200
216091.477262,-4.806607183579,-11.981586809063,13.531303380821,682258.2121,5763617.9159,74.4184
216091.482262,-4.799979738941,-11.989341668492,13.521978154864,682258.2158,5763617.9411,74.4169
216091.487262,-4.791233528012,-11.997211054409,13.511387284277,682258.2194,5763617.9663,74.4154
216091.492262,-4.779926903612,-12.004775468343,13.499074327213,682258.2230,5763617.9916,74.4138
216091.497262,-4.768424013544,-12.011078099071,13.490386130577,682258.2266,5763618.0168,74.4123
216091.502262,-4.752059816928,-12.017884594997,13.482087957730,682258.2302,5763618.0421,74.4107
216091.507262,-4.735835598882,-12.023318905751,13.475428973532,682258.2338,5763618.0674,74.4092
216091.512262,-4.716797055906,-12.027057535351,13.465435585170,682258.2373,5763618.0928,74.4076
216091.517262,-4.691662481581,-12.028922947268,13.456274239782,682258.2408,5763618.1182,74.4061
216091.522262,-4.670896875327,-12.027590881577,13.449737175668,682258.2444,5763618.1436,74.4045
216091.527262,-4.641324666857,-12.027736569670,13.440311682557,682258.2479,5763618.1690,74.4030
216091.532262,-4.623592241020,-12.025411715362,13.431795834727,682258.2514,5763618.1945,74.4015
216091.537262,-4.593385970655,-12.023294904616,13.417501033274,682258.2549,5763618.2200,74.3999
216091.542262,-4.575137992816,-12.017141870307,13.407517081697,682258.2583,5763618.2455,74.3984
216091.547262,-4.546747836867,-12.013204792337,13.394933523301,682258.2618,5763618.2711,74.3969
216091.552262,-4.528619243254,-12.006697142269,13.383271086989,682258.2653,5763618.2967,74.3953
216091.557262,-4.508552366500,-11.999041975205,13.368635005002,682258.2688,5763618.3223,74.3938
216091.562262,-4.492318829547,-11.991109188669,13.355089591413,682258.2723,5763618.3479,74.3923
216091.567262,-4.476503522462,-11.984334209681,13.344728372882,682258.2757,5763618.3736,74.3907
216091.572262,-4.458875215579,-11.978433369283,13.333534507811,682258.2792,5763618.3993,74.3892
216091.577262,-4.445012795204,-11.971043090590,13.322922377402,682258.2827,5763618.4250,74.3877
216091.582262,-4.432450358264,-11.964950052825,13.312809810802,682258.2862,5763618.4507,74.3862
216091.587262,-4.425133835577,-11.963202071115,13.306358324810,682258.2897,5763618.4765,74.3846
216091.592262,-4.420942120282,-11.962531338081,13.301836942843,682258.2932,5763618.5022,74.3831
216091.597262,-4.413646681355,-11.959687340118,13.295100124523,682258.2966,5763618.5281,74.3816
216091.602262,-4.408967510123,-11.953807288499,13.289496876792,682258.3001,5763618.5539,74.3801
216091.607262,-4.400095072064,-11.949058864994,13.283926884006,682258.3036,5763618.5798,74.3786
216091.612262,-4.396175100236,-11.943304292700,13.280286615907,682258.3070,5763618.6057,74.3771
216091.617262,-4.381579182761,-11.934317802942,13.272348270696,682258.3105,5763618.6316,74.3756
216091.622262,-4.366781870385,-11.922355157812,13.264288746763,682258.3139,5763618.6576,74.3741
216091.627262,-4.341844341035,-11.910650242424,13.254736841435,682258.3173,5763618.6835,74.3727
216091.632262,-4.322985678304,-11.897293931242,13.246809969957,682258.3207,5763618.7096,74.3712
216091.637262,-4.298229531080,-11.882529814045,13.235235569517,682258.3240,5763618.7356,74.3697
216091.642262,-4.279697695026,-11.865108098692,13.224630521341,682258.3274,5763618.7617,74.3683
216091.647262,-4.258118908063,-11.848897663688,13.212437819624,682258.3308,5763618.7878,74.3668
216091.652262,-4.241523779654,-11.831195604623,13.202594916080,682258.3341,5763618.8140,74.3654
216091.657262,-4.226407631722,-11.810997006489,13.192354316293,682258.3374,5763618.8402,74.3640
216091.662262,-4.206866730686,-11.790188519698,13.182269321582,682258.3408,5763618.8664,74.3626
216091.667262,-4.195809017811,-11.769801658185,13.173670941653,682258.3441,5763618.8926,74.3611
216091.672262,-4.177000279221,-11.748787509100,13.163887268935,682258.3475,5763618.9188,74.3597
216091.677262,-4.170558787872,-11.723107407555,13.157834990889,682258.3508,5763618.9451,74.3583
216091.682262,-4.152085978945,-11.698210112317,13.148754478009,682258.3542,5763618.9715,74.3570
216091.687262,-4.146609318397,-11.669999548043,13.143889324448,682258.3575,5763618.9978,74.3556
216091.692262,-4.136739435572,-11.640908288314,13.136392285569,682258.3609,5763619.0242,74.3542
216091.697262,-4.133354772890,-11.607067595047,13.130790011801,682258.3643,5763619.0506,74.3529
216091.702262,-4.126118256565,-11.572331983785,13.125254455540,682258.3676,5763619.0770,74.3516
216091.707262,-4.111703265549,-11.537077024970,13.117451848906,682258.3709,5763619.1035,74.3503
216091.712262,-4.102886807396,-11.497704528690,13.110994263064,682258.3743,5763619.1299,74.3490
216091.717262,-4.089542342300,-11.456403584830,13.101699376011,682258.3776,5763619.1565,74.3477
216091.722262,-4.079340354851,-11.414815369674,13.095731760804,682258.3809,5763619.1830,74.3464
216091.727262,-4.064488080846,-11.372978131969,13.087457521051,682258.3842,5763619.2096,74.3451
216091.732262,-4.049431234959,-11.327526850612,13.078246490408,682258.3875,5763619.2362,74.3439
216091.737262,-4.039891127883,-11.278720548501,13.069914484512,682258.3908,5763619.2628,74.3426
216091.742262,-4.021943553418,-11.233077450070,13.061971784904,682258.3941,5763619.2895,74.3414
216091.747262,-4.012518417999,-11.187738408196,13.056364912883,682258.3973,5763619.3161,74.3402
216091.752262,-3.994747842562,-11.143408472275,13.044752826040,682258.4006,5763619.3428,74.3389
216091.757262,-3.985720013180,-11.097829722601,13.035535085742,682258.4038,5763619.3696,74.3377
216091.762262,-3.967766138283,-11.057361776051,13.027242355707,682258.4071,5763619.3963,74.3365
216091.767262,-3.953652187896,-11.018051912494,13.021199341331,682258.4103,5763619.4231,74.3353
216091.772262,-3.938260976750,-10.977569690600,13.012001143136,682258.4136,5763619.4498,74.3342
216091.777262,-3.926951636934,-10.937260650566,13.002751090044,682258.4168,5763619.4766,74.3330
216091.782262,-3.912869474225,-10.900424099325,12.997589901156,682258.4200,5763619.5035,74.3318
216091.787262,-3.898085050340,-10.865432359070,12.994051074833,682258.4233,5763619.5303,74.3307
216091.792262,-3.883844266105,-10.827650720722,12.988397465228,682258.4265,5763619.5571,74.3295
216091.797262,-3.872798353575,-10.788543101641,12.982143506190,682258.4297,5763619.5840,74.3284
216091.802262,-3.864295885136,-10.754499877044,12.978061991934,682258.4329,5763619.6109,74.3273
216091.807262,-3.857605961483,-10.721789347351,12.976194456482,682258.4361,5763619.6378,74.3261
216091.812262,-3.850511915013,-10.686396701653,12.970661756969,682258.4393,5763619.6647,74.3250
216091.817262,-3.843927218852,-10.648676496842,12.963335734399,682258.4425,5763619.6917,74.3239
216091.822262,-3.835650183771,-10.613795280753,12.957687932596,682258.4457,5763619.7187,74.3228
216091.827262,-3.830496931797,-10.581552788908,12.953640644979,682258.4489,5763619.7457,74.3217
216091.832262,-3.823472496215,-10.547328674937,12.947114701952,682258.4521,5763619.7727,74.3206
216091.837262,-3.818386418192,-10.510831934722,12.939401840075,682258.4553,5763619.7997,74.3196
216091.842262,-3.805968138052,-10.476570202720,12.931070641913,682258.4585,5763619.8268,74.3185
216091.847262,-3.797797409424,-10.442304257464,12.926713356322,682258.4617,5763619.8538,74.3175
216091.852262,-3.787483168532,-10.406576675391,12.919388217831,682258.4648,5763619.8809,74.3164
216091.857262,-3.776603761995,-10.367838553300,12.912456195221,682258.4680,5763619.9081,74.3154
216091.862262,-3.762968378554,-10.329124096115,12.906092207001,682258.4711,5763619.9352,74.3144
216091.867262,-3.742971488780,-10.289366965337,12.901652487556,682258.4743,5763619.9624,74.3134
216091.872262,-3.733541902839,-10.244733745394,12.899449148575,682258.4774,5763619.9896,74.3124
216091.877262,-3.713624232024,-10.198664533690,12.893969058058,682258.4805,5763620.0168,74.3114
216091.882262,-3.705201117169,-10.150097838551,12.892931395760,682258.4837,5763620.0440,74.3105
216091.887262,-3.685648285582,-10.102117948175,12.888723964817,682258.4868,5763620.0713,74.3095
216091.892262,-3.680192491413,-10.048362363645,12.888697663986,682258.4899,5763620.0986,74.3086
216091.897262,-3.666862312499,-9.994477056425,12.885525866243,682258.4930,5763620.1259,74.3077
216091.902262,-3.653914992282,-9.939681145395,12.882776150989,682258.4961,5763620.1532,74.3067
216091.907262,-3.639042167707,-9.884051264791,12.880535558520,682258.4992,5763620.1805,74.3058
216091.912262,-3.621428955256,-9.827448537876,12.876118688958,682258.5023,5763620.2078,74.3049
216091.917262,-3.608394927453,-9.771015018607,12.874598365060,682258.5054,5763620.2352,74.3040
216091.922262,-3.586133916968,-9.718113304228,12.869899316772,682258.5085,5763620.2626,74.3031
216091.927262,-3.571232979997,-9.665200128471,12.867350318460,682258.5116,5763620.2900,74.3023
216091.932262,-3.556751253103,-9.612065567686,12.862328337829,682258.5147,5763620.3174,74.3014
216091.937262,-3.545060297558,-9.562093578063,12.859203003775,682258.5178,5763620.3448,74.3005
216091.942262,-3.534509483261,-9.515222824792,12.857713292258,682258.5208,5763620.3722,74.2997
216091.947262,-3.517544147929,-9.469918699424,12.852547200493,682258.5239,5763620.3997,74.2988
216091.952262,-3.509332799209,-9.422617503317,12.849129820751,682258.5270,5763620.4271,74.2980
216091.957262,-3.488567324584,-9.379457584844,12.844738048704,682258.5300,5763620.4546,74.2971
216091.962262,-3.473373482375,-9.339426690559,12.844795041737,682258.5330,5763620.4820,74.2963
216091.967262,-3.440119396189,-9.301722868872,12.839910623169,682258.5360,5763620.5095,74.2955
216091.972262,-3.422144851826,-9.263186935985,12.837039488369,682258.5391,5763620.5370,74.2947
216091.977262,-3.390724770443,-9.231143911268,12.831596572675,682258.5421,5763620.5645,74.2939
216091.982262,-3.369182812585,-9.202803372176,12.832807301153,682258.5451,5763620.5920,74.2931
216091.987262,-3.341190895741,-9.177914146110,12.829474957560,682258.5481,5763620.6195,74.2923
216091.992262,-3.323671899651,-9.151672974252,12.825917279846,682258.5510,5763620.6470,74.2915
216091.997262,-3.307138525175,-9.129930777078,12.821562996533,682258.5540,5763620.6746,74.2907
216092.002262,-3.288215970073,-9.112486176939,12.820362287588,682258.5569,5763620.7021,74.2899
216092.007262,-3.270806226324,-9.094740675408,12.820240501382,682258.5597,5763620.7297,74.2890
216092.012262,-3.246875750158,-9.074633619838,12.814738284750,682258.5626,5763620.7573,74.2882
216092.017262,-3.230321923739,-9.053126210741,12.811425944965,682258.5654,5763620.7849,74.2874
216092.022262,-3.208977038410,-9.035135842947,12.808656695257,682258.5683,5763620.8125,74.2866
216092.027262,-3.191567993168,-9.014743652562,12.808124237092,682258.5712,5763620.8401,74.2858
216092.032262,-3.175405920948,-8.989819204631,12.803629093300,682258.5740,5763620.8677,74.2851
216092.037262,-3.153440661963,-8.961630794677,12.796108191314,682258.5769,5763620.8954,74.2843
216092.042262,-3.138246407565,-8.932266629902,12.793447708042,682258.5797,5763620.9231,74.2836
216092.047262,-3.114354223270,-8.902954743669,12.787696063968,682258.5825,5763620.9508,74.2829
216092.052262,-3.103353611302,-8.867697769540,12.785307306801,682258.5854,5763620.9785,74.2822
216092.057262,-3.082720353357,-8.830144382829,12.776392058731,682258.5882,5763621.0062,74.2815
216092.062262,-3.070111108527,-8.789746004839,12.771013879318,682258.5910,5763621.0340,74.2808
216092.067262,-3.051193290475,-8.746382126981,12.765755130268,682258.5939,5763621.0617,74.2801
216092.072262,-3.040658216922,-8.700177591926,12.760460364461,682258.5967,5763621.0895,74.2795
216092.077262,-3.031885831727,-8.650304684449,12.753485953793,682258.5995,5763621.1173,74.2788
216092.082262,-3.022131019279,-8.598010232189,12.746315763254,682258.6023,5763621.1452,74.2781
216092.087262,-3.016009776052,-8.542151376436,12.740276256969,682258.6052,5763621.1730,74.2775
216092.092262,-3.007376449295,-8.483059311379,12.734200187160,682258.6080,5763621.2008,74.2768
216092.097262,-3.004917289117,-8.420034647821,12.727897262661,682258.6108,5763621.2287,74.2762
216092.102262,-3.001956198219,-8.355420947509,12.719352085614,682258.6137,5763621.2566,74.2755
216092.107262,-2.999374087118,-8.287105140978,12.713403386713,682258.6165,5763621.2844,74.2749
216092.112262,-2.999937408697,-8.218132247555,12.708439202512,682258.6194,5763621.3123,74.2743
216092.117262,-2.999566391260,-8.148842586959,12.701634943093,682258.6222,5763621.3402,74.2737
216092.122262,-3.002360041506,-8.079428140792,12.695212358588,682258.6250,5763621.3681,74.2731
216092.127262,-2.999564887428,-8.010593872608,12.686973218676,682258.6279,5763621.3960,74.2725
216092.132262,-3.002200946342,-7.943491957229,12.681231779689,682258.6307,5763621.4240,74.2719
216092.137262,-3.001172582322,-7.879155801710,12.674151702627,682258.6335,5763621.4519,74.2713
216092.142262,-2.999348910534,-7.817385124452,12.665462669703,682258.6363,5763621.4798,74.2707
216092.147262,-2.997495479068,-7.757046961312,12.656971785411,682258.6391,5763621.5077,74.2701
216092.152262,-2.991300096182,-7.702171454160,12.648882214705,682258.6419,5763621.5356,74.2696
216092.157262,-2.993601411614,-7.650937137774,12.644027175150,682258.6447,5763621.5636,74.2689
216092.162262,-2.992153671826,-7.604119194706,12.635097692958,682258.6474,5763621.5915,74.2683
216092.167262,-2.992322302397,-7.558089511309,12.628863781553,682258.6502,5763621.6194,74.2677
216092.172262,-2.991702757749,-7.517715467296,12.621911130585,682258.6530,5763621.6473,74.2671
216092.177262,-2.987759212687,-7.483052635729,12.615642529538,682258.6557,5763621.6752,74.2665
216092.182262,-2.988217755040,-7.451465973256,12.610900318020,682258.6585,5763621.7031,74.2659
216092.187262,-2.984006304190,-7.423814080327,12.601603027342,682258.6612,5763621.7310,74.2653
216092.192262,-2.982745265185,-7.399880828798,12.595745234952,682258.6639,5763621.7589,74.2647
216092.197262,-2.977707202936,-7.381973247517,12.590096170427,682258.6667,5763621.7867,74.2640
216092.202262,-2.974385369731,-7.369152292035,12.583108123576,682258.6694,5763621.8146,74.2634
216092.207262,-2.970776363999,-7.357740081209,12.577327432923,682258.6721,5763621.8425,74.2628
216092.212262,-2.958354760995,-7.351885838513,12.570334623444,682258.6748,5763621.8703,74.2621
216092.217262,-2.952235005122,-7.350823081877,12.566369066486,682258.6775,5763621.8982,74.2614
216092.222262,-2.933757314179,-7.354061554899,12.559290163966,682258.6802,5763621.9261,74.2607
216092.227262,-2.924373860341,-7.358621596933,12.554726541139,682258.6828,5763621.9539,74.2601
216092.232262,-2.907027037591,-7.368397699491,12.546622229512,682258.6855,5763621.9818,74.2594
216092.237262,-2.893582768795,-7.380227788031,12.542442062540,682258.6881,5763622.0096,74.2587
216092.242262,-2.881270545433,-7.394551364619,12.535757550663,682258.6908,5763622.0375,74.2580
216092.247262,-2.872873926592,-7.410416020144,12.528657347999,682258.6934,5763622.0653,74.2572
